[
  { "id": "madrid-dsn",        "name": "Madrid Deep Space Network (MDSCC)", "lat_deg":  40.43,  "lon_deg":  -4.25, "country": "ESP", "type": "DSN" },
  { "id": "goldstone-dsn",     "name": "Goldstone DSN",                     "lat_deg":  35.43,  "lon_deg":-116.89, "country": "USA", "type": "DSN" },
  { "id": "canberra-dsn",      "name": "Canberra DSN (CDSCC)",              "lat_deg": -35.40,  "lon_deg": 148.98, "country": "AUS", "type": "DSN" },
  { "id": "kourou-esa",        "name": "Kourou ESTRACK",                    "lat_deg":   5.25,  "lon_deg": -52.80, "country": "GUF", "type": "DSN" },
  { "id": "kiruna-esa",        "name": "Kiruna Ground Station",             "lat_deg":  67.85,  "lon_deg":  20.97, "country": "SWE", "type": "DSN" },
  { "id": "wallops-nasa",      "name": "Wallops Flight Facility",           "lat_deg":  37.94,  "lon_deg": -75.46, "country": "USA", "type": "Commercial" },
  { "id": "svalbard-ksat",     "name": "SvalSat (KSAT)",                    "lat_deg":  78.23,  "lon_deg":  15.38, "country": "NOR", "type": "Commercial" },
  { "id": "poker-flat-ksat",   "name": "Poker Flat (KSAT)",                 "lat_deg":  65.12,  "lon_deg":-147.43, "country": "USA", "type": "Commercial" },
  { "id": "dongara-aws",       "name": "Dongara Ground Station",            "lat_deg": -29.04,  "lon_deg": 115.35, "country": "AUS", "type": "Commercial" },
  { "id": "weilheim-dlr",      "name": "Weilheim DLR",                      "lat_deg":  47.88,  "lon_deg":  11.08, "country": "DEU", "type": "DSN" },
  { "id": "beijing-cls",       "name": "Beijing Tracking Station",          "lat_deg":  40.56,  "lon_deg": 116.24, "country": "PRC", "type": "Military" },
  { "id": "kashi-cls",         "name": "Kashi Tracking Station",            "lat_deg":  39.51,  "lon_deg":  75.93, "country": "PRC", "type": "Military" },
  { "id": "usuda-jaxa",        "name": "Usuda Deep Space Center",           "lat_deg":  36.13,  "lon_deg": 138.36, "country": "JPN", "type": "DSN" },
  { "id": "yevpatoria-rsa",    "name": "Yevpatoria RT-70",                  "lat_deg":  45.19,  "lon_deg":  33.19, "country": "CIS", "type": "DSN" },
  { "id": "schriever-afb",     "name": "Schriever Space Force Base",        "lat_deg":  38.80,  "lon_deg":-104.52, "country": "USA", "type": "Military" },
  { "id": "diego-garcia-gps",  "name": "Diego Garcia GPS Monitor",          "lat_deg":  -7.31,  "lon_deg":  72.41, "country": "GBR", "type": "Military" },
  { "id": "mit-haystack",      "name": "MIT Haystack Observatory",          "lat_deg":  42.62,  "lon_deg": -71.49, "country": "USA", "type": "University" },
  { "id": "effelsberg",        "name": "Effelsberg 100m",                   "lat_deg":  50.52,  "lon_deg":   6.88, "country": "DEU", "type": "University" },
  { "id": "parkes-csiro",      "name": "Parkes Observatory",                "lat_deg": -33.00,  "lon_deg": 148.26, "country": "AUS", "type": "University" },
  { "id": "arecibo-legacy",    "name": "Arecibo Observatory (legacy)",      "lat_deg":  18.34,  "lon_deg": -66.75, "country": "PRI", "type": "University" },
  { "id": "istrac-bangalore", "name": "ISTRAC Bangalore", "lat_deg": 12.97, "lon_deg": 77.59, "country": "IND", "type": "TTC" },
  { "id": "mcf-hassan", "name": "MCF Hassan", "lat_deg": 12.99, "lon_deg": 76.10, "country": "IND", "type": "DSN" },
  { "id": "sdsc-sriharikota", "name": "SDSC Sriharikota", "lat_deg": 13.72, "lon_deg": 80.23, "country": "IND", "type": "Launch" },
  { "id": "kscc-kulasekarapattinam", "name": "KSCC Kulasekarapattinam", "lat_deg": 8.39, "lon_deg": 78.06, "country": "IND", "type": "Launch" }
]
